{
"type": "FeatureCollection",
"name": "samian_research_findspots_decmus_iv",
"crs": { "type": "name", "properties": { "name": "urn:ogc:def:crs:OGC:1.3:CRS84" } },
"features": [
{ "type": "Feature", "properties": { "id": "http://data.archaeology.link/data/samian/loc_ds_1001788", "count": "4", "label": "Lavoye" }, "geometry": { "type": "Point", "coordinates": [ 5.133333, 49.033332 ] } },
{ "type": "Feature", "properties": { "id": "http://data.archaeology.link/data/samian/loc_ds_1003531", "count": "3", "label": "Nijmegen" }, "geometry": { "type": "Point", "coordinates": [ 5.866666, 51.833328 ] } },
{ "type": "Feature", "properties": { "id": "http://data.archaeology.link/data/samian/loc_ds_1003939", "count": "3", "label": "Zugmantel" }, "geometry": { "type": "Point", "coordinates": [ 8.203443, 50.189704 ] } },
{ "type": "Feature", "properties": { "id": "http://data.archaeology.link/data/samian/loc_ds_1001653", "count": "2", "label": "Vechten" }, "geometry": { "type": "Point", "coordinates": [ 5.168262, 52.060794 ] } },
{ "type": "Feature", "properties": { "id": "http://data.archaeology.link/data/samian/loc_ds_1000737", "count": "2", "label": "Saalburg" }, "geometry": { "type": "Point", "coordinates": [ 8.566659, 50.271522 ] } },
{ "type": "Feature", "properties": { "id": "http://data.archaeology.link/data/samian/loc_ds_1004157", "count": "1", "label": "Dartford" }, "geometry": { "type": "Point", "coordinates": [ 0.216666, 51.45 ] } },
{ "type": "Feature", "properties": { "id": "http://data.archaeology.link/data/samian/loc_ds_1001778", "count": "1", "label": "Springhead" }, "geometry": { "type": "Point", "coordinates": [ 0.32822, 51.430296 ] } },
{ "type": "Feature", "properties": { "id": "http://data.archaeology.link/data/samian/loc_ds_1001408", "count": "1", "label": "Mucking" }, "geometry": { "type": "Point", "coordinates": [ 0.366666, 51.516666 ] } },
{ "type": "Feature", "properties": { "id": "http://data.archaeology.link/data/samian/loc_ds_1002425", "count": "1", "label": "Chadwell St Mary" }, "geometry": { "type": "Point", "coordinates": [ 0.383389, 51.475337 ] } },
{ "type": "Feature", "properties": { "id": "http://data.archaeology.link/data/samian/loc_ds_1001351", "count": "1", "label": "Voorburg" }, "geometry": { "type": "Point", "coordinates": [ 4.349213, 52.060064 ] } },
{ "type": "Feature", "properties": { "id": "http://data.archaeology.link/data/samian/loc_ds_1002190", "count": "1", "label": "Valkenburg" }, "geometry": { "type": "Point", "coordinates": [ 4.433332, 52.18333 ] } },
{ "type": "Feature", "properties": { "id": "http://data.archaeology.link/data/samian/loc_ds_1003549", "count": "1", "label": "Alésia" }, "geometry": { "type": "Point", "coordinates": [ 4.483333, 47.049999 ] } },
{ "type": "Feature", "properties": { "id": "http://data.archaeology.link/data/samian/loc_ds_1003811", "count": "1", "label": "Le Châtelet" }, "geometry": { "type": "Point", "coordinates": [ 5.099999, 48.549999 ] } },
{ "type": "Feature", "properties": { "id": "http://data.archaeology.link/data/samian/loc_ds_1003203", "count": "1", "label": "Langres" }, "geometry": { "type": "Point", "coordinates": [ 5.333333, 47.866664 ] } },
{ "type": "Feature", "properties": { "id": "http://data.archaeology.link/data/samian/loc_ds_1001255", "count": "1", "label": "Tongeren" }, "geometry": { "type": "Point", "coordinates": [ 5.46484, 50.78054 ] } },
{ "type": "Feature", "properties": { "id": "http://data.archaeology.link/data/samian/loc_ds_1002083", "count": "1", "label": "Grand" }, "geometry": { "type": "Point", "coordinates": [ 5.48701, 48.38494 ] } },
{ "type": "Feature", "properties": { "id": "http://data.archaeology.link/data/samian/loc_ds_1004087", "count": "1", "label": "Scarponne" }, "geometry": { "type": "Point", "coordinates": [ 6.066666, 48.849998 ] } },
{ "type": "Feature", "properties": { "id": "http://data.archaeology.link/data/samian/loc_ds_1003961", "count": "1", "label": "Haute-Yutz" }, "geometry": { "type": "Point", "coordinates": [ 6.199999, 49.349998 ] } },
{ "type": "Feature", "properties": { "id": "http://data.archaeology.link/data/samian/loc_ds_1000457", "count": "1", "label": "Xanten" }, "geometry": { "type": "Point", "coordinates": [ 6.45297, 51.65877 ] } },
{ "type": "Feature", "properties": { "id": "http://data.archaeology.link/data/samian/loc_ds_1001641", "count": "1", "label": "Boucheporn" }, "geometry": { "type": "Point", "coordinates": [ 6.599999, 49.150001 ] } },
{ "type": "Feature", "properties": { "id": "http://data.archaeology.link/data/samian/loc_ds_1004136", "count": "1", "label": "Bonn" }, "geometry": { "type": "Point", "coordinates": [ 7.099999, 50.733329 ] } },
{ "type": "Feature", "properties": { "id": "http://data.archaeology.link/data/samian/loc_ds_1002582", "count": "1", "label": "Sinzig" }, "geometry": { "type": "Point", "coordinates": [ 7.25, 50.549999 ] } },
{ "type": "Feature", "properties": { "id": "http://data.archaeology.link/data/samian/loc_ds_1001943", "count": "1", "label": "Wiesbaden" }, "geometry": { "type": "Point", "coordinates": [ 8.25, 50.083328 ] } },
{ "type": "Feature", "properties": { "id": "http://data.archaeology.link/data/samian/loc_ds_1002066", "count": "1", "label": "Groß-Gerau" }, "geometry": { "type": "Point", "coordinates": [ 8.493611, 49.923889 ] } },
{ "type": "Feature", "properties": { "id": "http://data.archaeology.link/data/samian/loc_ds_1000838", "count": "1", "label": "Echzell" }, "geometry": { "type": "Point", "coordinates": [ 8.883176, 50.393087 ] } },
{ "type": "Feature", "properties": { "id": "http://data.archaeology.link/data/samian/loc_ds_1003728", "count": "1", "label": "Miltenberg" }, "geometry": { "type": "Point", "coordinates": [ 9.264444, 49.703891 ] } },
{ "type": "Feature", "properties": { "id": "http://data.archaeology.link/data/samian/loc_ds_1003728", "count": "1", "label": "Miltenberg" }, "geometry": null }
]
}
